{
"type": "FeatureCollection",
"crs": { "type": "name", "properties": { "name": "urn:ogc:def:crs:EPSG::4479" } },
                                                                                
"features": [
{ "type": "Feature", "properties": { "ID": 1, "lon": 102.804480, "lat": 24.968039, "name": "出口加工区办事处", "class": "地方局" }, "geometry": { "type": "Point", "coordinates": [ -1282212.056323739001527, 5641635.573749625124037 ] } },
{ "type": "Feature", "properties": { "ID": 2, "lon": 100.237020, "lat": 25.595851, "name": "大理局", "class": "地方局" }, "geometry": { "type": "Point", "coordinates": [ -1022925.702048630919307, 5664181.080658775754273 ] } },
{ "type": "Feature", "properties": { "ID": 3, "lon": 98.590870, "lat": 24.438863, "name": "德宏局", "class": "地方局" }, "geometry": { "type": "Point", "coordinates": [ -867885.868529171100818, 5744819.163694296963513 ] } },
{ "type": "Feature", "properties": { "ID": 4, "lon": 98.317831, "lat": 24.117404, "name": "德宏局芒海办工作点", "class": "工作点" }, "geometry": { "type": "Point", "coordinates": [ -842617.437934283050708, 5763375.548111470416188 ] } },
{ "type": "Feature", "properties": { "ID": 5, "lon": 97.938068, "lat": 24.711820, "name": "德宏局盈江办工作点", "class": "工作点" }, "geometry": { "type": "Point", "coordinates": [ -800640.571608948986977, 5741880.654942099936306 ] } },
{ "type": "Feature", "properties": { "ID": 6, "lon": 97.806585, "lat": 24.990527, "name": "德宏局盈江办卡场工作点", "class": "工作点" }, "geometry": { "type": "Point", "coordinates": [ -785699.613537336117588, 5730848.524735796265304 ] } },
{ "type": "Feature", "properties": { "ID": 7, "lon": 97.569961, "lat": 24.755551, "name": "德宏局盈江办那邦监管科工作点", "class": "工作点" }, "geometry": { "type": "Point", "coordinates": [ -763467.563313273130916, 5744896.889764 ] } },
{ "type": "Feature", "properties": { "ID": 8, "lon": 97.956069, "lat": 24.704148, "name": "德宏局盈江联检货场工作点", "class": "工作点" }, "geometry": { "type": "Point", "coordinates": [ -802493.664335200097412, 5741980.627643152140081 ] } },
{ "type": "Feature", "properties": { "ID": 9, "lon": 97.799166, "lat": 24.182783, "name": "德宏局章凤办工作点", "class": "工作点" }, "geometry": { "type": "Point", "coordinates": [ -790009.139448599773459, 5767831.763975168578327 ] } },
{ "type": "Feature", "properties": { "ID": 10, "lon": 97.785574, "lat": 24.244309, "name": "德宏局章凤拉勐工作点", "class": "工作点" }, "geometry": { "type": "Point", "coordinates": [ -788262.218451763386838, 5765249.803741380572319 ] } },
{ "type": "Feature", "properties": { "ID": 11, "lon": 97.734045, "lat": 24.199794, "name": "德宏局章凤联检货场工作点", "class": "工作点" }, "geometry": { "type": "Point", "coordinates": [ -783349.147235487005673, 5767960.869793065823615 ] } },
{ "type": "Feature", "properties": { "ID": 12, "lon": 103.941050, "lat": 22.534526, "name": "河口局北山边民互市交易市场工作点", "class": "工作点" }, "geometry": { "type": "Point", "coordinates": [ -1420016.509410928236321, 5720442.018203555606306 ] } },
{ "type": "Feature", "properties": { "ID": 13, "lon": 103.941050, "lat": 22.534526, "name": "河口局滇越国际货场工作点", "class": "工作点" }, "geometry": { "type": "Point", "coordinates": [ -1420016.509410928236321, 5720442.018203555606306 ] } },
{ "type": "Feature", "properties": { "ID": 14, "lon": 103.961850, "lat": 22.516511, "name": "河口局国际旅行保健中心工作点", "class": "工作点" }, "geometry": { "type": "Point", "coordinates": [ -1422277.494034109869972, 5720667.80560046248138 ] } },
{ "type": "Feature", "properties": { "ID": 15, "lon": 103.953780, "lat": 22.531340, "name": "河口局红河公路口岸工作点", "class": "工作点" }, "geometry": { "type": "Point", "coordinates": [ -1421320.046962582273409, 5720257.5892204772681 ] } },
{ "type": "Feature", "properties": { "ID": 16, "lon": 103.945730, "lat": 22.535176, "name": "河口局", "class": "地方局" }, "geometry": { "type": "Point", "coordinates": [ -1420477.110190571052954, 5720299.23750379960984 ] } },
{ "type": "Feature", "properties": { "ID": 17, "lon": 103.970230, "lat": 22.511526, "name": "河口局南溪河公路口岸工作点", "class": "工作点" }, "geometry": { "type": "Point", "coordinates": [ -1423165.205475064925849, 5720664.847606796771288 ] } },
{ "type": "Feature", "properties": { "ID": 18, "lon": 103.974880, "lat": 22.516659, "name": "河口局山腰铁路口岸工作点", "class": "工作点" }, "geometry": { "type": "Point", "coordinates": [ -1423576.915243892930448, 5720338.117979892529547 ] } },
{ "type": "Feature", "properties": { "ID": 19, "lon": 103.961850, "lat": 22.516511, "name": "河口局综合技术中心实验室工作点", "class": "工作点" }, "geometry": { "type": "Point", "coordinates": [ -1422277.494034109869972, 5720667.80560046248138 ] } },
{ "type": "Feature", "properties": { "ID": 20, "lon": 103.237080, "lat": 22.784116, "name": "红河局金平办事处工作点", "class": "工作点" }, "geometry": { "type": "Point", "coordinates": [ -1347188.133275638101622, 5727091.77827753778547 ] } },
{ "type": "Feature", "properties": { "ID": 21, "lon": 102.426910, "lat": 23.374952, "name": "红河局", "class": "地方局" }, "geometry": { "type": "Point", "coordinates": [ -1260554.608790960628539, 5720519.095039430074394 ] } },
{ "type": "Feature", "properties": { "ID": 22, "lon": 101.868840, "lat": 22.591369, "name": "江城局", "class": "地方局" }, "geometry": { "type": "Point", "coordinates": [ -1211745.657177928369492, 5765683.892827021889389 ] } },
{ "type": "Feature", "properties": { "ID": 23, "lon": 101.719350, "lat": 22.489449, "name": "江城局勐康口岸工作点", "class": "工作点" }, "geometry": { "type": "Point", "coordinates": [ -1197577.128563521895558, 5773062.096165376715362 ] } },
{ "type": "Feature", "properties": { "ID": 24, "lon": 102.662700, "lat": 25.076345, "name": "昆明车站办昆明高新保税物流中心", "class": "工作点" }, "geometry": { "type": "Point", "coordinates": [ -1267135.367036527954042, 5639840.06033721100539 ] } },
{ "type": "Feature", "properties": { "ID": 25, "lon": 102.763260, "lat": 25.030632, "name": "昆明车站办事处", "class": "地方局" }, "geometry": { "type": "Point", "coordinates": [ -1277505.64468708075583, 5639698.77454119361937 ] } },
{ "type": "Feature", "properties": { "ID": 26, "lon": 102.848630, "lat": 24.930228, "name": "昆明车站办王家营", "class": "工作点" }, "geometry": { "type": "Point", "coordinates": [ -1286951.787624427117407, 5642368.362509650178254 ] } },
{ "type": "Feature", "properties": { "ID": 27, "lon": 102.931820, "lat": 25.092732, "name": "昆明机场局东航货场工作点", "class": "工作点" }, "geometry": { "type": "Point", "coordinates": [ -1293439.563304267590865, 5633076.028157629072666 ] } },
{ "type": "Feature", "properties": { "ID": 28, "lon": 102.934770, "lat": 25.095608, "name": "昆明机场局国际快件监管中心工作点", "class": "工作点" }, "geometry": { "type": "Point", "coordinates": [ -1293699.348614468472078, 5632877.738558994606137 ] } },
{ "type": "Feature", "properties": { "ID": 29, "lon": 102.926720, "lat": 25.089462, "name": "昆明机场局", "class": "地方局" }, "geometry": { "type": "Point", "coordinates": [ -1292972.510714328382164, 5633340.851874099113047 ] } },
{ "type": "Feature", "properties": { "ID": 30, "lon": 102.934000, "lat": 25.088208, "name": "昆明机场局空港货场工作点", "class": "工作点" }, "geometry": { "type": "Point", "coordinates": [ -1293701.456203507492319, 5633233.928332261741161 ] } },
{ "type": "Feature", "properties": { "ID": 31, "lon": 102.935100, "lat": 25.102760, "name": "昆明机场局旅航检现场工作点", "class": "工作点" }, "geometry": { "type": "Point", "coordinates": [ -1293656.564360470045358, 5632542.749923900701106 ] } },
{ "type": "Feature", "properties": { "ID": 32, "lon": 102.931020, "lat": 25.087998, "name": "昆明机场局通关工作点", "class": "工作点" }, "geometry": { "type": "Point", "coordinates": [ -1293410.672639450291172, 5633310.820636162534356 ] } },
{ "type": "Feature", "properties": { "ID": 33, "lon": 102.741360, "lat": 25.025969, "name": "昆明机场局邮检工作点", "class": "工作点" }, "geometry": { "type": "Point", "coordinates": [ -1275398.102264411747456, 5640399.807424575090408 ] } },
{ "type": "Feature", "properties": { "ID": 34, "lon": 102.934770, "lat": 25.095608, "name": "丽江局", "class": "地方局" }, "geometry": { "type": "Point", "coordinates": [ -1013797.975185048650019, 5595347.565648580901325 ] } },
{ "type": "Feature", "properties": { "ID": 35, "lon": 100.255650, "lat": 26.674709, "name": "丽江局丽江三义国际机场工作点", "class": "工作点" }, "geometry": { "type": "Point", "coordinates": [ -1014463.013036430580541, 5601584.847766469232738 ] } },
{ "type": "Feature", "properties": { "ID": 36, "lon": 99.260533, "lat": 23.148797, "name": "临沧局沧源工作点", "class": "工作点" }, "geometry": { "type": "Point", "coordinates": [ -944245.794160995748825, 5791175.983117807656527 ] } },
{ "type": "Feature", "properties": { "ID": 37, "lon": 100.094720, "lat": 23.888573, "name": "临沧局", "class": "地方局" }, "geometry": { "type": "Point", "coordinates": [ -1022727.744916547671892, 5744626.991162394173443 ] } },
{ "type": "Feature", "properties": { "ID": 38, "lon": 100.088620, "lat": 23.901924, "name": "临沧局临翔工作点", "class": "工作点" }, "geometry": { "type": "Point", "coordinates": [ -1022011.213600528310053, 5744146.128830624744296 ] } },
{ "type": "Feature", "properties": { "ID": 39, "lon": 98.885803, "lat": 23.485483, "name": "临沧局芒卡工作点", "class": "工作点" }, "geometry": { "type": "Point", "coordinates": [ -904070.226704253815114, 5782645.731079104356468 ] } },
{ "type": "Feature", "properties": { "ID": 40, "lon": 98.821571, "lat": 23.758452, "name": "临沧局南伞工作点", "class": "工作点" }, "geometry": { "type": "Point", "coordinates": [ -895729.191455823602155, 5771684.920397838577628 ] } },
{ "type": "Feature", "properties": { "ID": 41, "lon": 99.731130, "lat": 24.402007, "name": "临沧局清水河工作点", "class": "工作点" }, "geometry": { "type": "Point", "coordinates": [ -982321.05175832088571, 5728074.112006392329931 ] } },
{ "type": "Feature", "properties": { "ID": 42, "lon": 101.284760, "lat": 21.263040, "name": "勐腊局岔河工作点", "class": "工作点" }, "geometry": { "type": "Point", "coordinates": [ -1163655.563341163564473, 5831599.409818461164832 ] } },
{ "type": "Feature", "properties": { "ID": 43, "lon": 101.708740, "lat": 21.209123, "name": "勐腊局关累办事处", "class": "工作点" }, "geometry": { "type": "Point", "coordinates": [ -1207215.061849072109908, 5824946.253408523276448 ] } },
{ "type": "Feature", "properties": { "ID": 44, "lon": 101.571150, "lat": 21.465275, "name": "勐腊局", "class": "地方局" }, "geometry": { "type": "Point", "coordinates": [ -1191153.643506916705519, 5817718.68772130087018 ] } },
{ "type": "Feature", "properties": { "ID": 45, "lon": 101.316380, "lat": 22.124170, "name": "勐腊局曼庄工作点", "class": "工作点" }, "geometry": { "type": "Point", "coordinates": [ -1159957.684851095546037, 5796396.53490480221808 ] } },
{ "type": "Feature", "properties": { "ID": 46, "lon": 101.708740, "lat": 21.209123, "name": "勐腊局磨憨办事处", "class": "工作点" }, "geometry": { "type": "Point", "coordinates": [ -1207215.061849072109908, 5824946.253408523276448 ] } },
{ "type": "Feature", "properties": { "ID": 47, "lon": 98.601983, "lat": 26.116096, "name": "怒江局岗房查验点", "class": "工作点" }, "geometry": { "type": "Point", "coordinates": [ -857134.173593956511468, 5666209.246341503225267 ] } },
{ "type": "Feature", "properties": { "ID": 48, "lon": 98.865150, "lat": 25.821333, "name": "怒江局", "class": "地方局" }, "geometry": { "type": "Point", "coordinates": [ -885354.357082469738089, 5676341.167902594432235 ] } },
{ "type": "Feature", "properties": { "ID": 49, "lon": 98.637979, "lat": 26.014764, "name": "怒江局下片马查验点", "class": "工作点" }, "geometry": { "type": "Point", "coordinates": [ -861434.665637202211656, 5670546.560998363420367 ] } },
{ "type": "Feature", "properties": { "ID": 50, "lon": 100.967550, "lat": 22.800860, "name": "普洱局", "class": "地方局" }, "geometry": { "type": "Point", "coordinates": [ -1119199.527264758944511, 5775243.425368471071124 ] } },
{ "type": "Feature", "properties": { "ID": 51, "lon": 99.692854, "lat": 22.121248, "name": "普洱局澜沧阿里通道", "class": "工作点" }, "geometry": { "type": "Point", "coordinates": [ -995288.569311999133788, 5827053.790852958336473 ] } },
{ "type": "Feature", "properties": { "ID": 52, "lon": 99.565889, "lat": 23.028093, "name": "普洱局澜沧雪林通道", "class": "工作点" }, "geometry": { "type": "Point", "coordinates": [ -975967.254834630759433, 5791230.590104213915765 ] } },
{ "type": "Feature", "properties": { "ID": 53, "lon": 99.598148, "lat": 22.332905, "name": "普洱局孟连办工作点", "class": "工作点" }, "geometry": { "type": "Point", "coordinates": [ -984177.22264857229311, 5819949.195206306874752 ] } },
{ "type": "Feature", "properties": { "ID": 54, "lon": 99.588339, "lat": 22.165573, "name": "普洱局孟连办芒信工作点", "class": "工作点" }, "geometry": { "type": "Point", "coordinates": [ -984349.454557462362573, 5827035.445956564508379 ] } },
{ "type": "Feature", "properties": { "ID": 55, "lon": 99.203551, "lat": 22.180788, "name": "普洱局孟连办勐阿工作点", "class": "工作点" }, "geometry": { "type": "Point", "coordinates": [ -945092.543786496506073, 5832887.033074258826673 ] } },
{ "type": "Feature", "properties": { "ID": 56, "lon": 100.591500, "lat": 22.503763, "name": "普洱局思茅港办工作点", "class": "工作点" }, "geometry": { "type": "Point", "coordinates": [ -1083600.001659635454416, 5794919.889844646677375 ] } },
{ "type": "Feature", "properties": { "ID": 57, "lon": 99.453585, "lat": 22.787921, "name": "普洱局西盟大黑山工作点", "class": "工作点" }, "geometry": { "type": "Point", "coordinates": [ -966314.619453121442348, 5803344.891510617919266 ] } },
{ "type": "Feature", "properties": { "ID": 58, "lon": 99.389869, "lat": 22.729851, "name": "普洱局西盟岳宋183工作点", "class": "工作点" }, "geometry": { "type": "Point", "coordinates": [ -960266.269915989483707, 5806870.309237672016025 ] } },
{ "type": "Feature", "properties": { "ID": 59, "lon": 97.882782, "lat": 24.014274, "name": "瑞丽局保健分中心工作点", "class": "工作点" }, "geometry": { "type": "Point", "coordinates": [ -799470.86859893577639, 5774221.331832577474415 ] } },
{ "type": "Feature", "properties": { "ID": 60, "lon": 97.882716, "lat": 24.014278, "name": "瑞丽局技术中心工作点", "class": "工作点" }, "geometry": { "type": "Point", "coordinates": [ -799464.192445698776282, 5774222.074157861061394 ] } },
{ "type": "Feature", "properties": { "ID": 61, "lon": 98.067527, "lat": 24.084196, "name": "瑞丽局驾驶员之家工作点", "class": "工作点" }, "geometry": { "type": "Point", "coordinates": [ -817642.209260757896118, 5768488.688692215830088 ] } },
{ "type": "Feature", "properties": { "ID": 62, "lon": 97.901735, "lat": 23.984065, "name": "瑞丽局姐告办事处工作点", "class": "工作点" }, "geometry": { "type": "Point", "coordinates": [ -801567.975237494101748, 5775304.489902188070118 ] } },
{ "type": "Feature", "properties": { "ID": 63, "lon": 97.896927, "lat": 23.985625, "name": "瑞丽局姐告国门工作点", "class": "工作点" }, "geometry": { "type": "Point", "coordinates": [ -801073.685537948505953, 5775302.164328753016889 ] } },
{ "type": "Feature", "properties": { "ID": 64, "lon": 97.892330, "lat": 23.987893, "name": "瑞丽局姐告货检工作点", "class": "工作点" }, "geometry": { "type": "Point", "coordinates": [ -800596.292235792381689, 5775265.266511864028871 ] } },
{ "type": "Feature", "properties": { "ID": 65, "lon": 97.891048, "lat": 23.996125, "name": "瑞丽局姐告中缅街工作点", "class": "工作点" }, "geometry": { "type": "Point", "coordinates": [ -800416.172290476388298, 5774915.958660387434065 ] } },
{ "type": "Feature", "properties": { "ID": 66, "lon": 97.866612, "lat": 24.015519, "name": "瑞丽局", "class": "地方局" }, "geometry": { "type": "Point", "coordinates": [ -797833.556627897312865, 5774391.137060872279108 ] } },
{ "type": "Feature", "properties": { "ID": 67, "lon": 97.669766, "lat": 23.878216, "name": "瑞丽局弄岛办工作点", "class": "工作点" }, "geometry": { "type": "Point", "coordinates": [ -778814.127121014520526, 5783215.369326923042536 ] } },
{ "type": "Feature", "properties": { "ID": 68, "lon": 97.643242, "lat": 23.892412, "name": "瑞丽局弄岛雷允工作点", "class": "工作点" }, "geometry": { "type": "Point", "coordinates": [ -776052.137957235216163, 5782944.307433757930994 ] } },
{ "type": "Feature", "properties": { "ID": 69, "lon": 97.879032, "lat": 23.989544, "name": "瑞丽局瑞丽联检楼报检工作点", "class": "工作点" }, "geometry": { "type": "Point", "coordinates": [ -799245.675765346270055, 5775377.282690154388547 ] } },
{ "type": "Feature", "properties": { "ID": 70, "lon": 97.878915, "lat": 23.989480, "name": "瑞丽局瑞丽联检楼边民互市工作点", "class": "工作点" }, "geometry": { "type": "Point", "coordinates": [ -799234.277300893329084, 5775381.769533946178854 ] } },
{ "type": "Feature", "properties": { "ID": 71, "lon": 97.879068, "lat": 23.989661, "name": "瑞丽局瑞丽联检楼出境货物监管工作", "class": "工作点" }, "geometry": { "type": "Point", "coordinates": [ -799248.582304247072898, 5775371.561618717387319 ] } },
{ "type": "Feature", "properties": { "ID": 72, "lon": 97.879135, "lat": 23.989475, "name": "瑞丽局瑞丽联检楼入境货物监管工作", "class": "工作点" }, "geometry": { "type": "Point", "coordinates": [ -799256.484033996937796, 5775378.923680381849408 ] } },
{ "type": "Feature", "properties": { "ID": 73, "lon": 97.876081, "lat": 24.026836, "name": "瑞丽局瑞丽市外籍人员体检中心", "class": "工作点" }, "geometry": { "type": "Point", "coordinates": [ -798717.931846695253626, 5773753.768391283228993 ] } },
{ "type": "Feature", "properties": { "ID": 74, "lon": 97.870935, "lat": 24.008583, "name": "瑞丽局瑞丽油气站油漆检验监管工作", "class": "工作点" }, "geometry": { "type": "Point", "coordinates": [ -798312.045121026691049, 5774640.589442662894726 ] } },
{ "type": "Feature", "properties": { "ID": 75, "lon": 98.070937, "lat": 24.084599, "name": "瑞丽局畹町办工作点", "class": "工作点" }, "geometry": { "type": "Point", "coordinates": [ -817982.96622191881761, 5768421.981161859817803 ] } },
{ "type": "Feature", "properties": { "ID": 76, "lon": 98.082629, "lat": 24.083371, "name": "瑞丽局畹町边民互市工作点", "class": "工作点" }, "geometry": { "type": "Point", "coordinates": [ -819167.879680478596129, 5768309.892290635034442 ] } },
{ "type": "Feature", "properties": { "ID": 77, "lon": 98.065875, "lat": 24.083379, "name": "瑞丽局畹町货检楼工作点", "class": "工作点" }, "geometry": { "type": "Point", "coordinates": [ -817481.068247355520725, 5768548.822574691846967 ] } },
{ "type": "Feature", "properties": { "ID": 78, "lon": 97.881710, "lat": 24.014183, "name": "瑞丽局畹町进境水果监管场工作点（2", "class": "工作点" }, "geometry": { "type": "Point", "coordinates": [ -799363.395656442153268, 5774240.351908955723047 ] } },
{ "type": "Feature", "properties": { "ID": 79, "lon": 97.882330, "lat": 24.013787, "name": "瑞丽局畹町进境水生动物隔离检疫场", "class": "工作点" }, "geometry": { "type": "Point", "coordinates": [ -799428.326751305023208, 5774249.382366892881691 ] } },
{ "type": "Feature", "properties": { "ID": 80, "lon": 98.005921, "lat": 24.057492, "name": "瑞丽局畹町芒满工作点", "class": "工作点" }, "geometry": { "type": "Point", "coordinates": [ -811607.314976193360053, 5770559.098944232799113 ] } },
{ "type": "Feature", "properties": { "ID": 81, "lon": 98.079887, "lat": 24.083964, "name": "瑞丽局畹町桥工作点", "class": "工作点" }, "geometry": { "type": "Point", "coordinates": [ -818888.058003844926134, 5768322.552414850331843 ] } },
{ "type": "Feature", "properties": { "ID": 82, "lon": 97.858318, "lat": 24.018556, "name": "瑞丽局卫检科工作点", "class": "工作点" }, "geometry": { "type": "Point", "coordinates": [ -796978.942789313499816, 5774370.947920835576952 ] } },
{ "type": "Feature", "properties": { "ID": 83, "lon": 102.707830, "lat": 25.017725, "name": "省局机关保健中心工作点", "class": "工作点" }, "geometry": { "type": "Point", "coordinates": [ -1272182.040449100313708, 5641522.010936386883259 ] } },
{ "type": "Feature", "properties": { "ID": 84, "lon": 102.695560, "lat": 25.018282, "name": "云南出入境检验检疫局", "class": "省局" }, "geometry": { "type": "Point", "coordinates": [ -1270968.13407325418666, 5641768.866323629394174 ] } },
{ "type": "Feature", "properties": { "ID": 85, "lon": 99.179768, "lat": 25.124236, "name": "腾冲局保山办工作点", "class": "工作点" }, "geometry": { "type": "Point", "coordinates": [ -921808.823455147328787, 5704181.310616470873356 ] } },
{ "type": "Feature", "properties": { "ID": 86, "lon": 98.425729, "lat": 25.517524, "name": "腾冲局滇滩办工作点", "class": "工作点" }, "geometry": { "type": "Point", "coordinates": [ -843931.217074334039353, 5697386.291727191768587 ] } },
{ "type": "Feature", "properties": { "ID": 87, "lon": 98.286043, "lat": 25.335077, "name": "腾冲局猴桥黑泥潭联检楼工作点", "class": "工作点" }, "geometry": { "type": "Point", "coordinates": [ -831289.198208429850638, 5708013.991034155711532 ] } },
{ "type": "Feature", "properties": { "ID": 88, "lon": 98.281750, "lat": 25.327997, "name": "腾冲局猴桥下街查验货场工作点", "class": "工作点" }, "geometry": { "type": "Point", "coordinates": [ -830909.847449227469042, 5708408.331658625975251 ] } },
{ "type": "Feature", "properties": { "ID": 89, "lon": 98.501947, "lat": 25.015160, "name": "腾冲局监管二科自治工作点", "class": "工作点" }, "geometry": { "type": "Point", "coordinates": [ -855021.1551223002607, 5719750.54743177536875 ] } },
{ "type": "Feature", "properties": { "ID": 90, "lon": 98.496819, "lat": 25.026061, "name": "腾冲局", "class": "地方局" }, "geometry": { "type": "Point", "coordinates": [ -854433.769855041522533, 5719321.933474458754063 ] } },
{ "type": "Feature", "properties": { "ID": 91, "lon": 98.508162, "lat": 25.021021, "name": "腾冲局腾冲政务分中心检验检疫报检", "class": "工作点" }, "geometry": { "type": "Point", "coordinates": [ -855600.961810622713529, 5719386.222341298125684 ] } },
{ "type": "Feature", "properties": { "ID": 92, "lon": 104.237930, "lat": 23.389701, "name": "文山局", "class": "地方局" }, "geometry": { "type": "Point", "coordinates": [ -1440551.082932369317859, 5677196.049385190941393 ] } },
{ "type": "Feature", "properties": { "ID": 93, "lon": 104.850870, "lat": 22.941877, "name": "文山局麻栗坡天保口岸", "class": "工作点" }, "geometry": { "type": "Point", "coordinates": [ -1506201.672550620744005, 5680319.241485683247447 ] } },
{ "type": "Feature", "properties": { "ID": 94, "lon": 100.055320, "lat": 21.701845, "name": "西双版纳局打洛公路口岸工作点", "class": "工作点" }, "geometry": { "type": "Point", "coordinates": [ -1035157.502848291653208, 5837704.851797607727349 ] } },
{ "type": "Feature", "properties": { "ID": 95, "lon": 100.685870, "lat": 21.585485, "name": "西双版纳局大勐龙通道工作点", "class": "工作点" }, "geometry": { "type": "Point", "coordinates": [ -1100219.621639375807717, 5830629.127271170727909 ] } },
{ "type": "Feature", "properties": { "ID": 96, "lon": 100.813860, "lat": 22.018720, "name": "西双版纳局景洪港水运口岸工作点", "class": "工作点" }, "geometry": { "type": "Point", "coordinates": [ -1109898.884248121175915, 5810656.737796562723815 ] } },
{ "type": "Feature", "properties": { "ID": 97, "lon": 100.806200, "lat": 21.999266, "name": "西双版纳局", "class": "地方局" }, "geometry": { "type": "Point", "coordinates": [ -1109273.388210886158049, 5811598.02726483065635 ] } },
{ "type": "Feature", "properties": { "ID": 98, "lon": 100.567150, "lat": 22.062556, "name": "西双版纳局勐宋通道工作点", "class": "工作点" }, "geometry": { "type": "Point", "coordinates": [ -1084534.508661010069773, 5813591.332986952736974 ] } },
{ "type": "Feature", "properties": { "ID": 99, "lon": 100.774040, "lat": 21.977561, "name": "西双版纳局西双版纳国际机场航空口", "class": "工作点" }, "geometry": { "type": "Point", "coordinates": [ -1106179.395707636605948, 5813103.759330596774817 ] } },
{ "type": "Feature", "properties": { "ID": 100, "lon": 99.708003, "lat": 27.824828, "name": "香格里拉办事处", "class": "地方局" }, "geometry": { "type": "Point", "coordinates": [ -951867.235440260032192, 5563973.107272787950933 ] } }
]
}
