{
  "displayFieldName" : "",
  "fieldAliases" : {
    "FID" : "FID",
    "ID" : "ID",
    "lon" : "lon",
    "lat" : "lat",
    "name" : "name",
    "class" : "class"
  },
  "geometryType" : "esriGeometryPoint",
  "spatialReference" : {
    "wkid" : 4490,
    "latestWkid" : 4490
  },
  "fields" : [
    {
      "name" : "FID",
      "type" : "esriFieldTypeOID",
      "alias" : "FID"
    },
    {
      "name" : "ID",
      "type" : "esriFieldTypeInteger",
      "alias" : "ID"
    },
    {
      "name" : "lon",
      "type" : "esriFieldTypeDouble",
      "alias" : "lon"
    },
    {
      "name" : "lat",
      "type" : "esriFieldTypeDouble",
      "alias" : "lat"
    },
    {
      "name" : "name",
      "type" : "esriFieldTypeString",
      "alias" : "name",
      "length" : 50
    },
    {
      "name" : "class",
      "type" : "esriFieldTypeString",
      "alias" : "class",
      "length" : 50
    }
  ],
  "features" : [
    {
      "attributes" : {
        "FID" : 0,
        "ID" : 1,
        "lon" : 102.80448,
        "lat" : 24.968039000000001,
        "name" : "出口加工区办事处",
        "class" : "地方局"
      },
      "geometry" : {
        "x" : 102.80448,
        "y" : 24.968039000000001
      }
    },
    {
      "attributes" : {
        "FID" : 1,
        "ID" : 2,
        "lon" : 100.23702,
        "lat" : 25.595851,
        "name" : "大理局",
        "class" : "地方局"
      },
      "geometry" : {
        "x" : 100.23702,
        "y" : 25.595851
      }
    },
    {
      "attributes" : {
        "FID" : 2,
        "ID" : 3,
        "lon" : 98.590869999999995,
        "lat" : 24.438863000000001,
        "name" : "德宏局",
        "class" : "地方局"
      },
      "geometry" : {
        "x" : 98.590869999999995,
        "y" : 24.438863000000001
      }
    },
    {
      "attributes" : {
        "FID" : 3,
        "ID" : 4,
        "lon" : 98.317830999999998,
        "lat" : 24.117404000000001,
        "name" : "德宏局芒海办工作点",
        "class" : "工作点"
      },
      "geometry" : {
        "x" : 98.317830999999998,
        "y" : 24.117404000000001
      }
    },
    {
      "attributes" : {
        "FID" : 4,
        "ID" : 5,
        "lon" : 97.938068000000001,
        "lat" : 24.711819999999999,
        "name" : "德宏局盈江办工作点",
        "class" : "工作点"
      },
      "geometry" : {
        "x" : 97.938068000000001,
        "y" : 24.711819999999999
      }
    },
    {
      "attributes" : {
        "FID" : 5,
        "ID" : 6,
        "lon" : 97.806584999999998,
        "lat" : 24.990527,
        "name" : "德宏局盈江办卡场工作点",
        "class" : "工作点"
      },
      "geometry" : {
        "x" : 97.806584999999998,
        "y" : 24.990527
      }
    },
    {
      "attributes" : {
        "FID" : 6,
        "ID" : 7,
        "lon" : 97.569961000000006,
        "lat" : 24.755551000000001,
        "name" : "德宏局盈江办那邦监管科工作点",
        "class" : "工作点"
      },
      "geometry" : {
        "x" : 97.569961000000006,
        "y" : 24.755551000000001
      }
    },
    {
      "attributes" : {
        "FID" : 7,
        "ID" : 8,
        "lon" : 97.956068999999999,
        "lat" : 24.704148,
        "name" : "德宏局盈江联检货场工作点",
        "class" : "工作点"
      },
      "geometry" : {
        "x" : 97.956068999999999,
        "y" : 24.704148
      }
    },
    {
      "attributes" : {
        "FID" : 8,
        "ID" : 9,
        "lon" : 97.799166,
        "lat" : 24.182783000000001,
        "name" : "德宏局章凤办工作点",
        "class" : "工作点"
      },
      "geometry" : {
        "x" : 97.799166,
        "y" : 24.182783000000001
      }
    },
    {
      "attributes" : {
        "FID" : 9,
        "ID" : 10,
        "lon" : 97.785573999999997,
        "lat" : 24.244309000000001,
        "name" : "德宏局章凤拉勐工作点",
        "class" : "工作点"
      },
      "geometry" : {
        "x" : 97.785573999999997,
        "y" : 24.244309000000001
      }
    },
    {
      "attributes" : {
        "FID" : 10,
        "ID" : 11,
        "lon" : 97.734044999999995,
        "lat" : 24.199794000000001,
        "name" : "德宏局章凤联检货场工作点",
        "class" : "工作点"
      },
      "geometry" : {
        "x" : 97.734044999999995,
        "y" : 24.199794000000001
      }
    },
    {
      "attributes" : {
        "FID" : 11,
        "ID" : 12,
        "lon" : 103.94105,
        "lat" : 22.534526,
        "name" : "河口局北山边民互市交易市场工作点",
        "class" : "工作点"
      },
      "geometry" : {
        "x" : 103.94105,
        "y" : 22.534526
      }
    },
    {
      "attributes" : {
        "FID" : 12,
        "ID" : 13,
        "lon" : 103.94105,
        "lat" : 22.534526,
        "name" : "河口局滇越国际货场工作点",
        "class" : "工作点"
      },
      "geometry" : {
        "x" : 103.94105,
        "y" : 22.534526
      }
    },
    {
      "attributes" : {
        "FID" : 13,
        "ID" : 14,
        "lon" : 103.96185,
        "lat" : 22.516511000000001,
        "name" : "河口局国际旅行保健中心工作点",
        "class" : "工作点"
      },
      "geometry" : {
        "x" : 103.96185,
        "y" : 22.516511000000001
      }
    },
    {
      "attributes" : {
        "FID" : 14,
        "ID" : 15,
        "lon" : 103.95377999999999,
        "lat" : 22.53134,
        "name" : "河口局红河公路口岸工作点",
        "class" : "工作点"
      },
      "geometry" : {
        "x" : 103.95377999999999,
        "y" : 22.53134
      }
    },
    {
      "attributes" : {
        "FID" : 15,
        "ID" : 16,
        "lon" : 103.94573,
        "lat" : 22.535176,
        "name" : "河口局",
        "class" : "地方局"
      },
      "geometry" : {
        "x" : 103.94573,
        "y" : 22.535176
      }
    },
    {
      "attributes" : {
        "FID" : 16,
        "ID" : 17,
        "lon" : 103.97023,
        "lat" : 22.511526,
        "name" : "河口局南溪河公路口岸工作点",
        "class" : "工作点"
      },
      "geometry" : {
        "x" : 103.97023,
        "y" : 22.511526
      }
    },
    {
      "attributes" : {
        "FID" : 17,
        "ID" : 18,
        "lon" : 103.97488,
        "lat" : 22.516659000000001,
        "name" : "河口局山腰铁路口岸工作点",
        "class" : "工作点"
      },
      "geometry" : {
        "x" : 103.97488,
        "y" : 22.516659000000001
      }
    },
    {
      "attributes" : {
        "FID" : 18,
        "ID" : 19,
        "lon" : 103.96185,
        "lat" : 22.516511000000001,
        "name" : "河口局综合技术中心实验室工作点",
        "class" : "工作点"
      },
      "geometry" : {
        "x" : 103.96185,
        "y" : 22.516511000000001
      }
    },
    {
      "attributes" : {
        "FID" : 19,
        "ID" : 20,
        "lon" : 103.23708000000001,
        "lat" : 22.784116000000001,
        "name" : "红河局金平办事处工作点",
        "class" : "工作点"
      },
      "geometry" : {
        "x" : 103.23708000000001,
        "y" : 22.784116000000001
      }
    },
    {
      "attributes" : {
        "FID" : 20,
        "ID" : 21,
        "lon" : 102.42691000000001,
        "lat" : 23.374952,
        "name" : "红河局",
        "class" : "地方局"
      },
      "geometry" : {
        "x" : 102.42691000000001,
        "y" : 23.374952
      }
    },
    {
      "attributes" : {
        "FID" : 21,
        "ID" : 22,
        "lon" : 101.86884000000001,
        "lat" : 22.591369,
        "name" : "江城局",
        "class" : "地方局"
      },
      "geometry" : {
        "x" : 101.86884000000001,
        "y" : 22.591369
      }
    },
    {
      "attributes" : {
        "FID" : 22,
        "ID" : 23,
        "lon" : 101.71935000000001,
        "lat" : 22.489449,
        "name" : "江城局勐康口岸工作点",
        "class" : "工作点"
      },
      "geometry" : {
        "x" : 101.71935000000001,
        "y" : 22.489449
      }
    },
    {
      "attributes" : {
        "FID" : 23,
        "ID" : 24,
        "lon" : 102.6627,
        "lat" : 25.076345,
        "name" : "昆明车站办昆明高新保税物流中心",
        "class" : "工作点"
      },
      "geometry" : {
        "x" : 102.6627,
        "y" : 25.076345
      }
    },
    {
      "attributes" : {
        "FID" : 24,
        "ID" : 25,
        "lon" : 102.76326,
        "lat" : 25.030632000000001,
        "name" : "昆明车站办事处",
        "class" : "地方局"
      },
      "geometry" : {
        "x" : 102.76326,
        "y" : 25.030632000000001
      }
    },
    {
      "attributes" : {
        "FID" : 25,
        "ID" : 26,
        "lon" : 102.84863,
        "lat" : 24.930228,
        "name" : "昆明车站办王家营",
        "class" : "工作点"
      },
      "geometry" : {
        "x" : 102.84863,
        "y" : 24.930228
      }
    },
    {
      "attributes" : {
        "FID" : 26,
        "ID" : 27,
        "lon" : 102.93182,
        "lat" : 25.092732000000002,
        "name" : "昆明机场局东航货场工作点",
        "class" : "工作点"
      },
      "geometry" : {
        "x" : 102.93182,
        "y" : 25.092732000000002
      }
    },
    {
      "attributes" : {
        "FID" : 27,
        "ID" : 28,
        "lon" : 102.93477,
        "lat" : 25.095607999999999,
        "name" : "昆明机场局国际快件监管中心工作点",
        "class" : "工作点"
      },
      "geometry" : {
        "x" : 102.93477,
        "y" : 25.095607999999999
      }
    },
    {
      "attributes" : {
        "FID" : 28,
        "ID" : 29,
        "lon" : 102.92672,
        "lat" : 25.089462000000001,
        "name" : "昆明机场局",
        "class" : "地方局"
      },
      "geometry" : {
        "x" : 102.92672,
        "y" : 25.089462000000001
      }
    },
    {
      "attributes" : {
        "FID" : 29,
        "ID" : 30,
        "lon" : 102.934,
        "lat" : 25.088208000000002,
        "name" : "昆明机场局空港货场工作点",
        "class" : "工作点"
      },
      "geometry" : {
        "x" : 102.934,
        "y" : 25.088208000000002
      }
    },
    {
      "attributes" : {
        "FID" : 30,
        "ID" : 31,
        "lon" : 102.93510000000001,
        "lat" : 25.10276,
        "name" : "昆明机场局旅航检现场工作点",
        "class" : "工作点"
      },
      "geometry" : {
        "x" : 102.93510000000001,
        "y" : 25.10276
      }
    },
    {
      "attributes" : {
        "FID" : 31,
        "ID" : 32,
        "lon" : 102.93102,
        "lat" : 25.087997999999999,
        "name" : "昆明机场局通关工作点",
        "class" : "工作点"
      },
      "geometry" : {
        "x" : 102.93102,
        "y" : 25.087997999999999
      }
    },
    {
      "attributes" : {
        "FID" : 32,
        "ID" : 33,
        "lon" : 102.74136,
        "lat" : 25.025969,
        "name" : "昆明机场局邮检工作点",
        "class" : "工作点"
      },
      "geometry" : {
        "x" : 102.74136,
        "y" : 25.025969
      }
    },
    {
      "attributes" : {
        "FID" : 33,
        "ID" : 34,
        "lon" : 102.93477,
        "lat" : 25.095607999999999,
        "name" : "丽江局",
        "class" : "地方局"
      },
      "geometry" : {
        "x" : 100.26977367347008,
        "y" : 27.008694648687545
      }
    },
    {
      "attributes" : {
        "FID" : 34,
        "ID" : 35,
        "lon" : 100.25565,
        "lat" : 26.674709,
        "name" : "丽江局丽江三义国际机场工作点",
        "class" : "工作点"
      },
      "geometry" : {
        "x" : 100.26516784402332,
        "y" : 26.884101568513064
      }
    },
    {
      "attributes" : {
        "FID" : 35,
        "ID" : 36,
        "lon" : 99.260532999999995,
        "lat" : 23.148796999999998,
        "name" : "临沧局沧源工作点",
        "class" : "工作点"
      },
      "geometry" : {
        "x" : 99.260532999999995,
        "y" : 23.148796999999998
      }
    },
    {
      "attributes" : {
        "FID" : 36,
        "ID" : 37,
        "lon" : 100.09472,
        "lat" : 23.888573000000001,
        "name" : "临沧局",
        "class" : "地方局"
      },
      "geometry" : {
        "x" : 100.09472,
        "y" : 23.888573000000001
      }
    },
    {
      "attributes" : {
        "FID" : 37,
        "ID" : 38,
        "lon" : 100.08862000000001,
        "lat" : 23.901924000000001,
        "name" : "临沧局临翔工作点",
        "class" : "工作点"
      },
      "geometry" : {
        "x" : 100.08862000000001,
        "y" : 23.901924000000001
      }
    },
    {
      "attributes" : {
        "FID" : 38,
        "ID" : 39,
        "lon" : 98.885802999999996,
        "lat" : 23.485482999999999,
        "name" : "临沧局芒卡工作点",
        "class" : "工作点"
      },
      "geometry" : {
        "x" : 98.885802999999996,
        "y" : 23.485482999999999
      }
    },
    {
      "attributes" : {
        "FID" : 39,
        "ID" : 40,
        "lon" : 98.821571000000006,
        "lat" : 23.758451999999998,
        "name" : "临沧局南伞工作点",
        "class" : "工作点"
      },
      "geometry" : {
        "x" : 98.821571000000006,
        "y" : 23.758451999999998
      }
    },
    {
      "attributes" : {
        "FID" : 40,
        "ID" : 41,
        "lon" : 99.731129999999993,
        "lat" : 24.402007000000001,
        "name" : "临沧局清水河工作点",
        "class" : "工作点"
      },
      "geometry" : {
        "x" : 99.731129999999993,
        "y" : 24.402007000000001
      }
    },
    {
      "attributes" : {
        "FID" : 41,
        "ID" : 42,
        "lon" : 101.28476000000001,
        "lat" : 21.26304,
        "name" : "勐腊局岔河工作点",
        "class" : "工作点"
      },
      "geometry" : {
        "x" : 101.28476000000001,
        "y" : 21.26304
      }
    },
    {
      "attributes" : {
        "FID" : 42,
        "ID" : 43,
        "lon" : 101.70874000000001,
        "lat" : 21.209123000000002,
        "name" : "勐腊局关累办事处",
        "class" : "工作点"
      },
      "geometry" : {
        "x" : 101.70874000000001,
        "y" : 21.209123000000002
      }
    },
    {
      "attributes" : {
        "FID" : 43,
        "ID" : 44,
        "lon" : 101.57115,
        "lat" : 21.465274999999998,
        "name" : "勐腊局",
        "class" : "地方局"
      },
      "geometry" : {
        "x" : 101.57115,
        "y" : 21.465274999999998
      }
    },
    {
      "attributes" : {
        "FID" : 44,
        "ID" : 45,
        "lon" : 101.31638,
        "lat" : 22.124169999999999,
        "name" : "勐腊局曼庄工作点",
        "class" : "工作点"
      },
      "geometry" : {
        "x" : 101.31638,
        "y" : 22.124169999999999
      }
    },
    {
      "attributes" : {
        "FID" : 45,
        "ID" : 46,
        "lon" : 101.70874000000001,
        "lat" : 21.209123000000002,
        "name" : "勐腊局磨憨办事处",
        "class" : "工作点"
      },
      "geometry" : {
        "x" : 101.70874000000001,
        "y" : 21.209123000000002
      }
    },
    {
      "attributes" : {
        "FID" : 46,
        "ID" : 47,
        "lon" : 98.601983000000004,
        "lat" : 26.116095999999999,
        "name" : "怒江局岗房查验点",
        "class" : "工作点"
      },
      "geometry" : {
        "x" : 98.601983000000004,
        "y" : 26.116095999999999
      }
    },
    {
      "attributes" : {
        "FID" : 47,
        "ID" : 48,
        "lon" : 98.86515,
        "lat" : 25.821332999999999,
        "name" : "怒江局",
        "class" : "地方局"
      },
      "geometry" : {
        "x" : 98.86515,
        "y" : 25.821332999999999
      }
    },
    {
      "attributes" : {
        "FID" : 48,
        "ID" : 49,
        "lon" : 98.637979000000001,
        "lat" : 26.014764,
        "name" : "怒江局下片马查验点",
        "class" : "工作点"
      },
      "geometry" : {
        "x" : 98.637979000000001,
        "y" : 26.014764
      }
    },
    {
      "attributes" : {
        "FID" : 49,
        "ID" : 50,
        "lon" : 100.96755,
        "lat" : 22.80086,
        "name" : "普洱局",
        "class" : "地方局"
      },
      "geometry" : {
        "x" : 100.96755,
        "y" : 22.80086
      }
    },
    {
      "attributes" : {
        "FID" : 50,
        "ID" : 51,
        "lon" : 99.692853999999997,
        "lat" : 22.121248000000001,
        "name" : "普洱局澜沧阿里通道",
        "class" : "工作点"
      },
      "geometry" : {
        "x" : 99.692853999999997,
        "y" : 22.121248000000001
      }
    },
    {
      "attributes" : {
        "FID" : 51,
        "ID" : 52,
        "lon" : 99.565888999999999,
        "lat" : 23.028092999999998,
        "name" : "普洱局澜沧雪林通道",
        "class" : "工作点"
      },
      "geometry" : {
        "x" : 99.565888999999999,
        "y" : 23.028092999999998
      }
    },
    {
      "attributes" : {
        "FID" : 52,
        "ID" : 53,
        "lon" : 99.598147999999995,
        "lat" : 22.332905,
        "name" : "普洱局孟连办工作点",
        "class" : "工作点"
      },
      "geometry" : {
        "x" : 99.598147999999995,
        "y" : 22.332905
      }
    },
    {
      "attributes" : {
        "FID" : 53,
        "ID" : 54,
        "lon" : 99.588339000000005,
        "lat" : 22.165572999999998,
        "name" : "普洱局孟连办芒信工作点",
        "class" : "工作点"
      },
      "geometry" : {
        "x" : 99.588339000000005,
        "y" : 22.165572999999998
      }
    },
    {
      "attributes" : {
        "FID" : 54,
        "ID" : 55,
        "lon" : 99.203551000000004,
        "lat" : 22.180788,
        "name" : "普洱局孟连办勐阿工作点",
        "class" : "工作点"
      },
      "geometry" : {
        "x" : 99.203551000000004,
        "y" : 22.180788
      }
    },
    {
      "attributes" : {
        "FID" : 55,
        "ID" : 56,
        "lon" : 100.5915,
        "lat" : 22.503762999999999,
        "name" : "普洱局思茅港办工作点",
        "class" : "工作点"
      },
      "geometry" : {
        "x" : 100.5915,
        "y" : 22.503762999999999
      }
    },
    {
      "attributes" : {
        "FID" : 56,
        "ID" : 57,
        "lon" : 99.453585000000004,
        "lat" : 22.787921000000001,
        "name" : "普洱局西盟大黑山工作点",
        "class" : "工作点"
      },
      "geometry" : {
        "x" : 99.453585000000004,
        "y" : 22.787921000000001
      }
    },
    {
      "attributes" : {
        "FID" : 57,
        "ID" : 58,
        "lon" : 99.389869000000004,
        "lat" : 22.729851,
        "name" : "普洱局西盟岳宋183工作点",
        "class" : "工作点"
      },
      "geometry" : {
        "x" : 99.389869000000004,
        "y" : 22.729851
      }
    },
    {
      "attributes" : {
        "FID" : 58,
        "ID" : 59,
        "lon" : 97.882782000000006,
        "lat" : 24.014274,
        "name" : "瑞丽局保健分中心工作点",
        "class" : "工作点"
      },
      "geometry" : {
        "x" : 97.882782000000006,
        "y" : 24.014274
      }
    },
    {
      "attributes" : {
        "FID" : 59,
        "ID" : 60,
        "lon" : 97.882716000000002,
        "lat" : 24.014278000000001,
        "name" : "瑞丽局技术中心工作点",
        "class" : "工作点"
      },
      "geometry" : {
        "x" : 97.882716000000002,
        "y" : 24.014278000000001
      }
    },
    {
      "attributes" : {
        "FID" : 60,
        "ID" : 61,
        "lon" : 98.067526999999998,
        "lat" : 24.084195999999999,
        "name" : "瑞丽局驾驶员之家工作点",
        "class" : "工作点"
      },
      "geometry" : {
        "x" : 98.067526999999998,
        "y" : 24.084195999999999
      }
    },
    {
      "attributes" : {
        "FID" : 61,
        "ID" : 62,
        "lon" : 97.901735000000002,
        "lat" : 23.984065000000001,
        "name" : "瑞丽局姐告办事处工作点",
        "class" : "工作点"
      },
      "geometry" : {
        "x" : 97.901735000000002,
        "y" : 23.984065000000001
      }
    },
    {
      "attributes" : {
        "FID" : 62,
        "ID" : 63,
        "lon" : 97.896927000000005,
        "lat" : 23.985624999999999,
        "name" : "瑞丽局姐告国门工作点",
        "class" : "工作点"
      },
      "geometry" : {
        "x" : 97.896927000000005,
        "y" : 23.985624999999999
      }
    },
    {
      "attributes" : {
        "FID" : 63,
        "ID" : 64,
        "lon" : 97.892330000000001,
        "lat" : 23.987893,
        "name" : "瑞丽局姐告货检工作点",
        "class" : "工作点"
      },
      "geometry" : {
        "x" : 97.892330000000001,
        "y" : 23.987893
      }
    },
    {
      "attributes" : {
        "FID" : 64,
        "ID" : 65,
        "lon" : 97.891047999999998,
        "lat" : 23.996124999999999,
        "name" : "瑞丽局姐告中缅街工作点",
        "class" : "工作点"
      },
      "geometry" : {
        "x" : 97.891047999999998,
        "y" : 23.996124999999999
      }
    },
    {
      "attributes" : {
        "FID" : 65,
        "ID" : 66,
        "lon" : 97.866612000000003,
        "lat" : 24.015519000000001,
        "name" : "瑞丽局",
        "class" : "地方局"
      },
      "geometry" : {
        "x" : 97.866612000000003,
        "y" : 24.015519000000001
      }
    },
    {
      "attributes" : {
        "FID" : 66,
        "ID" : 67,
        "lon" : 97.669765999999996,
        "lat" : 23.878215999999998,
        "name" : "瑞丽局弄岛办工作点",
        "class" : "工作点"
      },
      "geometry" : {
        "x" : 97.669765999999996,
        "y" : 23.878215999999998
      }
    },
    {
      "attributes" : {
        "FID" : 67,
        "ID" : 68,
        "lon" : 97.643242000000001,
        "lat" : 23.892412,
        "name" : "瑞丽局弄岛雷允工作点",
        "class" : "工作点"
      },
      "geometry" : {
        "x" : 97.643242000000001,
        "y" : 23.892412
      }
    },
    {
      "attributes" : {
        "FID" : 68,
        "ID" : 69,
        "lon" : 97.879031999999995,
        "lat" : 23.989543999999999,
        "name" : "瑞丽局瑞丽联检楼报检工作点",
        "class" : "工作点"
      },
      "geometry" : {
        "x" : 97.879031999999995,
        "y" : 23.989543999999999
      }
    },
    {
      "attributes" : {
        "FID" : 69,
        "ID" : 70,
        "lon" : 97.878915000000006,
        "lat" : 23.98948,
        "name" : "瑞丽局瑞丽联检楼边民互市工作点",
        "class" : "工作点"
      },
      "geometry" : {
        "x" : 97.878915000000006,
        "y" : 23.98948
      }
    },
    {
      "attributes" : {
        "FID" : 70,
        "ID" : 71,
        "lon" : 97.879068000000004,
        "lat" : 23.989661000000002,
        "name" : "瑞丽局瑞丽联检楼出境货物监管工作",
        "class" : "工作点"
      },
      "geometry" : {
        "x" : 97.879068000000004,
        "y" : 23.989661000000002
      }
    },
    {
      "attributes" : {
        "FID" : 71,
        "ID" : 72,
        "lon" : 97.879135000000005,
        "lat" : 23.989474999999999,
        "name" : "瑞丽局瑞丽联检楼入境货物监管工作",
        "class" : "工作点"
      },
      "geometry" : {
        "x" : 97.879135000000005,
        "y" : 23.989474999999999
      }
    },
    {
      "attributes" : {
        "FID" : 72,
        "ID" : 73,
        "lon" : 97.876080999999999,
        "lat" : 24.026835999999999,
        "name" : "瑞丽局瑞丽市外籍人员体检中心",
        "class" : "工作点"
      },
      "geometry" : {
        "x" : 97.876080999999999,
        "y" : 24.026835999999999
      }
    },
    {
      "attributes" : {
        "FID" : 73,
        "ID" : 74,
        "lon" : 97.870935000000003,
        "lat" : 24.008583000000002,
        "name" : "瑞丽局瑞丽油气站油漆检验监管工作",
        "class" : "工作点"
      },
      "geometry" : {
        "x" : 97.870935000000003,
        "y" : 24.008583000000002
      }
    },
    {
      "attributes" : {
        "FID" : 74,
        "ID" : 75,
        "lon" : 98.070937000000001,
        "lat" : 24.084599000000001,
        "name" : "瑞丽局畹町办工作点",
        "class" : "工作点"
      },
      "geometry" : {
        "x" : 98.070937000000001,
        "y" : 24.084599000000001
      }
    },
    {
      "attributes" : {
        "FID" : 75,
        "ID" : 76,
        "lon" : 98.082628999999997,
        "lat" : 24.083371,
        "name" : "瑞丽局畹町边民互市工作点",
        "class" : "工作点"
      },
      "geometry" : {
        "x" : 98.082628999999997,
        "y" : 24.083371
      }
    },
    {
      "attributes" : {
        "FID" : 76,
        "ID" : 77,
        "lon" : 98.065875000000005,
        "lat" : 24.083379000000001,
        "name" : "瑞丽局畹町货检楼工作点",
        "class" : "工作点"
      },
      "geometry" : {
        "x" : 98.065875000000005,
        "y" : 24.083379000000001
      }
    },
    {
      "attributes" : {
        "FID" : 77,
        "ID" : 78,
        "lon" : 97.881709999999998,
        "lat" : 24.014182999999999,
        "name" : "瑞丽局畹町进境水果监管场工作点（2",
        "class" : "工作点"
      },
      "geometry" : {
        "x" : 97.881709999999998,
        "y" : 24.014182999999999
      }
    },
    {
      "attributes" : {
        "FID" : 78,
        "ID" : 79,
        "lon" : 97.882329999999996,
        "lat" : 24.013787000000001,
        "name" : "瑞丽局畹町进境水生动物隔离检疫场",
        "class" : "工作点"
      },
      "geometry" : {
        "x" : 97.882329999999996,
        "y" : 24.013787000000001
      }
    },
    {
      "attributes" : {
        "FID" : 79,
        "ID" : 80,
        "lon" : 98.005921000000001,
        "lat" : 24.057492,
        "name" : "瑞丽局畹町芒满工作点",
        "class" : "工作点"
      },
      "geometry" : {
        "x" : 98.005921000000001,
        "y" : 24.057492
      }
    },
    {
      "attributes" : {
        "FID" : 80,
        "ID" : 81,
        "lon" : 98.079886999999999,
        "lat" : 24.083964000000002,
        "name" : "瑞丽局畹町桥工作点",
        "class" : "工作点"
      },
      "geometry" : {
        "x" : 98.079886999999999,
        "y" : 24.083964000000002
      }
    },
    {
      "attributes" : {
        "FID" : 81,
        "ID" : 82,
        "lon" : 97.858317999999997,
        "lat" : 24.018556,
        "name" : "瑞丽局卫检科工作点",
        "class" : "工作点"
      },
      "geometry" : {
        "x" : 97.858317999999997,
        "y" : 24.018556
      }
    },
    {
      "attributes" : {
        "FID" : 82,
        "ID" : 83,
        "lon" : 102.70783,
        "lat" : 25.017724999999999,
        "name" : "省局机关保健中心工作点",
        "class" : "工作点"
      },
      "geometry" : {
        "x" : 102.70783,
        "y" : 25.017724999999999
      }
    },
    {
      "attributes" : {
        "FID" : 83,
        "ID" : 84,
        "lon" : 102.69556,
        "lat" : 25.018281999999999,
        "name" : "云南出入境检验检疫局",
        "class" : "省局"
      },
      "geometry" : {
        "x" : 102.69556,
        "y" : 25.018281999999999
      }
    },
    {
      "attributes" : {
        "FID" : 84,
        "ID" : 85,
        "lon" : 99.179767999999996,
        "lat" : 25.124236,
        "name" : "腾冲局保山办工作点",
        "class" : "工作点"
      },
      "geometry" : {
        "x" : 99.179767999999996,
        "y" : 25.124236
      }
    },
    {
      "attributes" : {
        "FID" : 85,
        "ID" : 86,
        "lon" : 98.425729000000004,
        "lat" : 25.517524000000002,
        "name" : "腾冲局滇滩办工作点",
        "class" : "工作点"
      },
      "geometry" : {
        "x" : 98.425729000000004,
        "y" : 25.517524000000002
      }
    },
    {
      "attributes" : {
        "FID" : 86,
        "ID" : 87,
        "lon" : 98.286043000000006,
        "lat" : 25.335076999999998,
        "name" : "腾冲局猴桥黑泥潭联检楼工作点",
        "class" : "工作点"
      },
      "geometry" : {
        "x" : 98.286043000000006,
        "y" : 25.335076999999998
      }
    },
    {
      "attributes" : {
        "FID" : 87,
        "ID" : 88,
        "lon" : 98.281750000000002,
        "lat" : 25.327997,
        "name" : "腾冲局猴桥下街查验货场工作点",
        "class" : "工作点"
      },
      "geometry" : {
        "x" : 98.281750000000002,
        "y" : 25.327997
      }
    },
    {
      "attributes" : {
        "FID" : 88,
        "ID" : 89,
        "lon" : 98.501947000000001,
        "lat" : 25.015160000000002,
        "name" : "腾冲局监管二科自治工作点",
        "class" : "工作点"
      },
      "geometry" : {
        "x" : 98.501947000000001,
        "y" : 25.015160000000002
      }
    },
    {
      "attributes" : {
        "FID" : 89,
        "ID" : 90,
        "lon" : 98.496819000000002,
        "lat" : 25.026060999999999,
        "name" : "腾冲局",
        "class" : "地方局"
      },
      "geometry" : {
        "x" : 98.496819000000002,
        "y" : 25.026060999999999
      }
    },
    {
      "attributes" : {
        "FID" : 90,
        "ID" : 91,
        "lon" : 98.508161999999999,
        "lat" : 25.021021000000001,
        "name" : "腾冲局腾冲政务分中心检验检疫报检",
        "class" : "工作点"
      },
      "geometry" : {
        "x" : 98.508161999999999,
        "y" : 25.021021000000001
      }
    },
    {
      "attributes" : {
        "FID" : 91,
        "ID" : 92,
        "lon" : 104.23793000000001,
        "lat" : 23.389700999999999,
        "name" : "文山局",
        "class" : "地方局"
      },
      "geometry" : {
        "x" : 104.23793000000001,
        "y" : 23.389700999999999
      }
    },
    {
      "attributes" : {
        "FID" : 92,
        "ID" : 93,
        "lon" : 104.85087,
        "lat" : 22.941877000000002,
        "name" : "文山局麻栗坡天保口岸",
        "class" : "工作点"
      },
      "geometry" : {
        "x" : 104.85087,
        "y" : 22.941877000000002
      }
    },
    {
      "attributes" : {
        "FID" : 93,
        "ID" : 94,
        "lon" : 100.05531999999999,
        "lat" : 21.701844999999999,
        "name" : "西双版纳局打洛公路口岸工作点",
        "class" : "工作点"
      },
      "geometry" : {
        "x" : 100.05531999999999,
        "y" : 21.701844999999999
      }
    },
    {
      "attributes" : {
        "FID" : 94,
        "ID" : 95,
        "lon" : 100.68586999999999,
        "lat" : 21.585484999999998,
        "name" : "西双版纳局大勐龙通道工作点",
        "class" : "工作点"
      },
      "geometry" : {
        "x" : 100.68586999999999,
        "y" : 21.585484999999998
      }
    },
    {
      "attributes" : {
        "FID" : 95,
        "ID" : 96,
        "lon" : 100.81386000000001,
        "lat" : 22.018719999999998,
        "name" : "西双版纳局景洪港水运口岸工作点",
        "class" : "工作点"
      },
      "geometry" : {
        "x" : 100.81386000000001,
        "y" : 22.018719999999998
      }
    },
    {
      "attributes" : {
        "FID" : 96,
        "ID" : 97,
        "lon" : 100.8062,
        "lat" : 21.999265999999999,
        "name" : "西双版纳局",
        "class" : "地方局"
      },
      "geometry" : {
        "x" : 100.8062,
        "y" : 21.999265999999999
      }
    },
    {
      "attributes" : {
        "FID" : 97,
        "ID" : 98,
        "lon" : 100.56715,
        "lat" : 22.062556000000001,
        "name" : "西双版纳局勐宋通道工作点",
        "class" : "工作点"
      },
      "geometry" : {
        "x" : 100.56715,
        "y" : 22.062556000000001
      }
    },
    {
      "attributes" : {
        "FID" : 98,
        "ID" : 99,
        "lon" : 100.77404,
        "lat" : 21.977561000000001,
        "name" : "西双版纳局西双版纳国际机场航空口",
        "class" : "工作点"
      },
      "geometry" : {
        "x" : 100.77404,
        "y" : 21.977561000000001
      }
    },
    {
      "attributes" : {
        "FID" : 99,
        "ID" : 100,
        "lon" : 99.708003000000005,
        "lat" : 27.824828,
        "name" : "香格里拉办事处",
        "class" : "地方局"
      },
      "geometry" : {
        "x" : 99.708003000000005,
        "y" : 27.824828
      }
    }
  ]
}